{
  "breweries": [
    {
      "id": "9c5a66c8-cc13-416f-a5d9-0a769c87d318",
      "name": "(512) Brewing Co",
      "brewery_type": "micro",
      "address_1": "407 Radam Ln Ste F200",
      "address_2": null,
      "address_3": null,
      "city": "Austin",
      "state_province": "Texas",
      "postal_code": "78745-1197",
      "country": "United States",
      "longitude": null,
      "latitude": null,
      "phone": "5129211545",
      "website_url": "http://www.512brewing.com",
      "state": "Texas",
      "street": "407 Radam Ln Ste F200"
    },
    {
      "id": "08f78223-24f8-4b71-b381-ea19a5bd82df",
      "name": "11 Below Brewing Company",
      "brewery_type": "micro",
      "address_1": "6820 Bourgeois Rd",
      "address_2": null,
      "address_3": null,
      "city": "Houston",
      "state_province": "Texas",
      "postal_code": "77066-3107",
      "country": "United States",
      "longitude": "-95.5186591",
      "latitude": "29.9515464",
      "phone": "2814442337",
      "website_url": "http://www.11belowbrewing.com",
      "state": "Texas",
      "street": "6820 Bourgeois Rd"
    },
    {
      "id": "232e8f62-9afc-45f5-b4bc-582c26b5c43b",
      "name": "10th District Brewing Company",
      "brewery_type": "micro",
      "address_1": "491 Washington St",
      "address_2": null,
      "address_3": null,
      "city": "Abington",
      "state_province": "Massachusetts",
      "postal_code": "02351-2419",
      "country": "United States",
      "longitude": "-70.94594149",
      "latitude": "42.10591754",
      "phone": "7813071554",
      "website_url": "http://www.10thdistrictbrewing.com",
      "state": "Massachusetts",
      "street": "491 Washington St"
    },
    {
      "id": "42aa37d5-8384-4ffe-8c81-7c982eff0384",
      "name": "10K Brewing",
      "brewery_type": "micro",
      "address_1": "2005 2nd Ave",
      "address_2": null,
      "address_3": null,
      "city": "Anoka",
      "state_province": "Minnesota",
      "postal_code": "55303-2243",
      "country": "United States",
      "longitude": "-93.38952559",
      "latitude": "45.19812039",
      "phone": "7633924753",
      "website_url": "http://10KBrew.com",
      "state": "Minnesota",
      "street": "2005 2nd Ave"
    },
    {
      "id": "4ffda196-dd59-44a5-9eeb-5f7fd4b58f5a",
      "name": "105 West Brewing Co",
      "brewery_type": "micro",
      "address_1": "1043 Park St",
      "address_2": null,
      "address_3": null,
      "city": "Castle Rock",
      "state_province": "Colorado",
      "postal_code": "80109-1585",
      "country": "United States",
      "longitude": "-104.8667206",
      "latitude": "39.38269495",
      "phone": "3033257321",
      "website_url": "http://www.105westbrewing.com",
      "state": "Colorado",
      "street": "1043 Park St"
    },
    {
      "id": "03118499-a3d0-4c22-860d-4529509ae095",
      "name": "101 Brewery",
      "brewery_type": "brewpub",
      "address_1": "294793 US Highway 101",
      "address_2": null,
      "address_3": null,
      "city": "Quilcene",
      "state_province": "Washington",
      "postal_code": "98376-9000",
      "country": "United States",
      "longitude": "-122.8755823",
      "latitude": "47.82347577",
      "phone": "3607656485",
      "website_url": "http://www.101brewery.com",
      "state": "Washington",
      "street": "294793 US Highway 101"
    },
    {
      "id": "7531dbd8-afc9-4b5b-95bc-7ece7f2c0bf3",
      "name": "10-56 Brewing Company",
      "brewery_type": "micro",
      "address_1": "400 Brown Cir",
      "address_2": null,
      "address_3": null,
      "city": "Knox",
      "state_province": "Indiana",
      "postal_code": "46534",
      "country": "United States",
      "longitude": "-86.627954",
      "latitude": "41.289715",
      "phone": "6308165790",
      "website_url": null,
      "state": "Indiana",
      "street": "400 Brown Cir"
    },
    {
      "id": "1ecc330f-6275-42a5-b14e-00adbed62752",
      "name": "10 Torr Distilling and Brewing",
      "brewery_type": "micro",
      "address_1": "490 Mill St",
      "address_2": null,
      "address_3": null,
      "city": "Reno",
      "state_province": "Nevada",
      "postal_code": "89502",
      "country": "United States",
      "longitude": "-119.7732015",
      "latitude": "39.5171702",
      "phone": "7755307014",
      "website_url": "http://www.10torr.com",
      "state": "Nevada",
      "street": "490 Mill St"
    },
    {
      "id": "34e8c68b-6146-453f-a4b9-1f6cd99a5ada",
      "name": "1 of Us Brewing Company",
      "brewery_type": "micro",
      "address_1": "8100 Washington Ave",
      "address_2": null,
      "address_3": null,
      "city": "Mount Pleasant",
      "state_province": "Wisconsin",
      "postal_code": "53406-3920",
      "country": "United States",
      "longitude": "-87.88336350209435",
      "latitude": "42.72010826899558",
      "phone": "2624847553",
      "website_url": "https://www.1ofusbrewing.com",
      "state": "Wisconsin",
      "street": "8100 Washington Ave"
    },
    {
      "id": "58293321-14ae-49d7-9a7b-08436c9e63a6",
      "name": "1188 Brewing Co",
      "brewery_type": "brewpub",
      "address_1": "141 E Main St",
      "address_2": null,
      "address_3": null,
      "city": "John Day",
      "state_province": "Oregon",
      "postal_code": "97845-1210",
      "country": "United States",
      "longitude": "-118.9218754",
      "latitude": "44.4146563",
      "phone": "5415751188",
      "website_url": "http://www.1188brewing.com",
      "state": "Oregon",
      "street": "141 E Main St"
    },
    {
      "id": "5128df48-79fc-4f0f-8b52-d06be54d0cec",
      "name": "(405) Brewing Co",
      "brewery_type": "micro",
      "address_1": "1716 Topeka St",
      "address_2": null,
      "address_3": null,
      "city": "Norman",
      "state_province": "Oklahoma",
      "postal_code": "73069-8224",
      "country": "United States",
      "longitude": "-97.46818222",
      "latitude": "35.25738891",
      "phone": "4058160490",
      "website_url": "http://www.405brewing.com",
      "state": "Oklahoma",
      "street": "1716 Topeka St"
    }
  ]
}